idExterne;nom;exploitant;latitude;longitude;couleur;couleurEvolution;vCreation;vMaj;vSuppression
SNCF01647;La Hisse;SNCF;48.4961248;-2.0036608;2;5;102;0;0
SNCF01651;Saint-Malo;SNCF;48.646859;-2.004158;3;5;102;0;0
SNCF01655;Bonnemain;SNCF;48.4764049;-1.7654125;4;5;102;0;0
SNCF01657;Dingé;SNCF;48.3507382;-1.6859729;5;2;102;0;0
SNCF01675;Gestel;SNCF;47.8029905;-3.4431341;0;6;102;0;0
SNCF01681;Landaul - Mendon;SNCF;47.7359877;-3.0860172;1;4;102;0;0
SNCF01687;Morlaix;SNCF;48.577970;-3.832514;2;1;102;0;0
SNCF01692;La Roche-Maurice;SNCF;48.4740885;-4.2050964;3;6;102;0;0
SNCF01711;Les Mais;SNCF;48.4262577;-3.3828609;4;7;102;0;0
SNCF01712;Coat Guégan;SNCF;48.4803156;-3.2738023;5;0;102;0;0
SNCF01714;Le Pénity;SNCF;48.3646275;-3.4763815;6;7;102;0;0
SNCF01717;Pont-Melvez;SNCF;48.4702228;-3.3114444;7;2;102;0;0
SNCF01720;Plancoët;SNCF;48.5216785;-2.2289207;0;3;102;0;0
SNCF01737;Saint-Brieuc;SNCF;48.507580;-2.765000;1;5;102;0;0
SNCF01749;Retiers;SNCF;47.9132599;-1.3898439;2;1;102;0;0
SNCF01761;Guichen - Bourg-des-Comptes;SNCF;47.9350963;-1.7601845;4;7;102;0;0
SNCF01767;L'Hermitage - Mordelles;SNCF;48.123142;-1.8192987;5;4;102;0;0
SNCF01645;Corseul - Languenan;SNCF;48.4960574;-2.1414331;4;7;102;0;0
SNCF01649;Miniac;SNCF;48.5315134;-1.914787;5;3;102;0;0
SNCF01668;Quiberon;SNCF;47.4852978;-3.1181869;6;1;102;0;0
SNCF01669;Saint-Pierre-Quiberon;SNCF;47.5210574;-3.138905;7;4;102;0;0
SNCF01671;Penthièvre;SNCF;47.5580254;-3.1330754;0;2;102;0;0
SNCF01673;Belz - Ploemel;SNCF;47.652466;-3.0721919;1;7;102;0;0
SNCF01682;Auray;SNCF;47.68022;-2.999995;2;7;102;0;0
SNCF01690;Guimiliau;SNCF;48.4852675;-3.9996163;3;4;102;0;0
SNCF01691;Landivisiau;SNCF;48.496002;-4.082181;4;7;102;0;0
SNCF01693;Landerneau;SNCF;48.453572;-4.256528;5;7;102;0;0
SNCF01700;Pont-de-Buis;SNCF;48.2544024;-4.0861227;6;2;102;0;0
SNCF01707;Pontrieux Halte;SNCF;48.6980361;-3.1644959;7;6;102;0;0
SNCF01713;Carnoët - Locarn;SNCF;48.3405242;-3.4908822;0;3;102;0;0
SNCF01726;Belle-Isle - Bégard;SNCF;48.5935901;-3.3228532;1;4;102;0;0
SNCF01741;Noyal - Acigné;SNCF;48.1187915;-1.5277646;2;0;102;0;0
SNCF01742;Servon;SNCF;48.112224;-1.4667757;3;1;102;0;0
SNCF01743;Châteaubourg;SNCF;48.106361;-1.405159;4;0;102;0;0
SNCF01750;Le Theil-de-Bretagne;SNCF;47.918742;-1.4319925;5;1;102;0;0
SNCF01754;Redon;SNCF;47.652004;-2.087770;6;3;102;0;0
SNCF01758;Messac - Guipry;SNCF;47.82225;-1.81822;0;7;102;0;0
SNCF01760;Saint-Senoux - Pléchâtel;SNCF;47.8977519;-1.7661904;1;4;102;0;0
SNCF01763;Breteil;SNCF;48.1405713;-1.8972095;2;1;102;0;0
SNCF01764;La Brohinière;SNCF;48.2134717;-2.110452;3;0;102;0;0
SNCF01766;Montfort-sur-Meu;SNCF;48.138878;-1.949141;4;7;102;0;0
SNCF01772;Rennes;SNCF;48.103517;-1.672744;5;3;102;0;0
SNCF02197;Cesson-Sévigné;SNCF;48.11281;-1.60211;5;3;102;0;0
SNCF01650;Plerguer;SNCF;48.5314637;-1.8505895;5;0;102;0;0
SNCF01652;La Gouesnière - Cancale - Saint-méloir-des-Ondes;SNCF;48.6144207;-1.9058105;6;1;102;0;0
SNCF01660;Saint-Germain-sur-Ille;SNCF;48.2394802;-1.6541804;7;5;102;0;0
SNCF01665;Questembert;SNCF;47.6831803;-2.4496002;0;3;102;0;0
SNCF01674;Quimperlé;SNCF;47.869375;-3.552693;1;2;102;0;0
SNCF01676;L'Isthme;SNCF;47.5465051;-3.133699;2;5;102;0;0
SNCF01678;Hennebont;SNCF;47.7990019;-3.2857467;3;4;102;0;0
SNCF01685;Saint-Pol-de-Léon;SNCF;48.6768402;-3.98731;4;5;102;0;0
SNCF01688;Pleyber-Christ;SNCF;48.5078255;-3.8825543;5;3;102;0;0
SNCF01697;Rosporden;SNCF;47.960273;-3.832763;6;7;102;0;0
SNCF01702;Brest;SNCF;48.388110;-4.478903;7;4;102;0;0
SNCF01708;Brélidy - Plouec;SNCF;48.669204;-3.196269;0;3;102;0;0
SNCF01709;Trégonneau - Squiffiec;SNCF;48.6243578;-3.1742524;1;7;102;0;0
SNCF01721;Landébia;SNCF;48.5074212;-2.3313716;2;5;102;0;0
SNCF01724;Plounérin;SNCF;48.5816298;-3.5682311;3;4;102;0;0
SNCF01728;Plouvara - Plerneuf;SNCF;48.508585;-2.8925136;4;7;102;0;0
SNCF01732;Plestan;SNCF;48.4256462;-2.4424607;5;4;102;0;0
SNCF01734;Broons;SNCF;48.3332957;-2.2356578;6;4;102;0;0
SNCF01744;Les Lacs;SNCF;48.1094359;-1.3208165;7;2;102;0;0
SNCF01745;Vitré;SNCF;48.122671;-1.211754;0;5;102;0;0
SNCF01746;Chevaigné;SNCF;48.2089042;-1.6307622;1;2;102;0;0
SNCF01747;Rennes - Pontchaillou;SNCF;48.11895;-1.69090;2;6;102;135;0
SNCF01748;Martigné-Ferchaud;SNCF;47.8321302;-1.3137943;3;4;102;0;0
SNCF01769;Betton;SNCF;48.1814803;-1.6344745;4;2;102;0;0
SNCF01770;Bruz;SNCF;48.0286;-1.7518088;5;1;102;0;0
SNCF02205;Traou Nez;SNCF;48.7485663;-3.1348766;2;3;102;0;0
SNCF01646;Dinan;SNCF;48.456764;-2.053542;5;2;102;0;0
SNCF01648;Pleudihen;SNCF;48.4993822;-1.9617515;6;7;102;0;0
SNCF01656;Combourg;SNCF;48.41609;-1.72792;7;2;102;0;0
SNCF01664;Malansac;SNCF;47.6756185;-2.2961796;1;4;102;0;0
SNCF01666;Sainte-Anne;SNCF;47.6785805;-2.96048;2;5;102;0;0
SNCF01680;Landévant;SNCF;47.759578;-3.1251313;3;4;102;0;0
SNCF01683;Lorient;SNCF;47.755597;-3.366221;4;3;102;0;0
SNCF01684;Roscoff;SNCF;48.7207491;-3.9833434;5;4;102;0;0
SNCF01696;Bannalec;SNCF;47.9267473;-3.7065268;6;1;102;0;0
SNCF01705;Lancerf;SNCF;48.761873;-3.1181396;7;6;102;0;0
SNCF01706;Pontrieux;SNCF;48.7056437;-3.1574281;0;1;102;0;0
SNCF01718;Moustéru;SNCF;48.5074512;-3.2435052;1;4;102;0;0
SNCF01722;Lannion;SNCF;48.727638;-3.460353;2;1;102;0;0
SNCF01723;Guingamp;SNCF;48.555659;-3.143343;3;6;102;0;0
SNCF01730;Yffiniac;SNCF;48.4702462;-2.6524629;4;7;102;0;0
SNCF01731;Lamballe;SNCF;48.466060;-2.511546;5;0;102;0;0
SNCF01735;Caulnes;SNCF;48.2844264;-2.155593;6;5;102;0;0
SNCF01736;Quédillac;SNCF;48.2484804;-2.1452204;7;0;102;0;0
SNCF01752;Corps-Nuds;SNCF;47.9851669;-1.5754724;0;2;102;0;0
SNCF01753;Saint-Armel;SNCF;48.014405;-1.5948867;1;4;102;0;0
SNCF01759;Pléchâtel;SNCF;47.8719509;-1.7763615;2;3;102;0;0
SNCF01762;Laillé;SNCF;47.9717527;-1.7495654;3;1;102;0;0
SNCF01765;Montauban-de-Bretagne;SNCF;48.190241;-2.052675;4;1;102;0;0
SNCF01771;Vern;SNCF;48.0469707;-1.5966524;5;1;102;0;0
SNCF02196;Rennes - La Poterie;SNCF;48.0923448;-1.6307729;7;1;102;135;0
SNCF02908;Ker Lann;SNCF;48.0429857;-1.7398306;5;0;102;0;0
SNCF01653;La Fresnais;SNCF;48.593655;-1.8432199;7;2;102;0;0
SNCF01654;Dol-de-Bretagne;SNCF;48.544250;-1.750536;0;7;102;0;0
SNCF01658;Montreuil-sur-Ille;SNCF;48.307292;-1.674155;1;3;102;0;0
SNCF01659;Saint-Médard-sur-Ille;SNCF;48.2742219;-1.6674886;2;7;102;0;0
SNCF01667;Vannes;SNCF;47.665169;-2.752450;3;1;102;0;0
SNCF01670;Kerhostin;SNCF;47.5369524;-3.1363795;4;5;102;0;0
SNCF01672;Plouharnel - Carnac;SNCF;47.6042943;-3.1184482;5;0;102;0;0
SNCF01677;Les Sables Blancs;SNCF;47.5755984;-3.1324467;6;7;102;0;0
SNCF01679;Brandérion;SNCF;47.7823179;-3.1940402;7;1;102;0;0
SNCF01686;Plouigneau;SNCF;48.5647064;-3.7100572;0;2;102;0;0
SNCF01689;Saint-Thégonnec;SNCF;48.4942082;-3.9483116;1;0;102;0;0
SNCF01694;La Forest-Landerneau;SNCF;48.4263093;-4.3074515;2;6;102;0;0
SNCF01695;Kerhuon;SNCF;48.4096627;-4.3882136;3;2;102;0;0
SNCF01698;Quimper;SNCF;47.994455;-4.092103;4;3;102;0;0
SNCF01699;Châteaulin;SNCF;48.2016033;-4.094308;5;7;102;0;0
SNCF01701;Dirinon;SNCF;48.3926343;-4.2855034;6;5;102;0;0
SNCF01703;Frynaudour;SNCF;48.7275919;-3.1284527;7;1;102;0;0
SNCF01704;Paimpol;SNCF;48.77694;-3.0460958;0;7;102;0;0
SNCF01710;Gourland;SNCF;48.5609981;-3.1668191;1;4;102;0;0
SNCF01715;Callac;SNCF;48.4062201;-3.419782;2;0;102;0;0
SNCF01716;Plougonver;SNCF;48.4584133;-3.3704584;3;5;102;0;0
SNCF01719;Carhaix;SNCF;48.2780022;-3.5622173;4;3;102;0;0
SNCF01725;Plouaret Trégor;SNCF;48.6062816;-3.4668231;5;4;102;0;0
SNCF01727;Châtelaudren - Plouagat;SNCF;48.5332189;-2.9746782;6;5;102;0;0
SNCF01729;La Méaugon;SNCF;48.4996127;-2.8439358;7;1;102;0;0
SNCF01733;Plénée-Jugon;SNCF;48.376656;-2.3546108;0;4;102;0;0
SNCF01751;Janzé;SNCF;47.955364;-1.497538;3;0;102;0;0
SNCF01757;Fougeray - Langon;SNCF;47.7297956;-1.8510921;4;5;102;0;0
SNCF01768;Saint-Jacques-de-la-Lande;SNCF;48.0670983;-1.7142367;5;6;102;0;0
STAR001;J. F. Kennedy;STAR;48.1212990676;-1.71126078725;6;2;135;137;0
STAR002;Villejean-Université;STAR;48.1212406422;-1.70392917872;7;3;135;0;0
STAR003;Pontchaillou;STAR;48.1215567734;-1.69339989615;0;4;135;0;0
STAR004;Anatole France;STAR;48.1181370954;-1.68759952144;1;7;135;0;0
STAR005;Sainte-Anne;STAR;48.1145246925;-1.6805089396;2;5;135;0;0
STAR006;République;STAR;48.109759217;-1.67918191616;3;5;135;0;0
STAR007;Charles de Gaulle;STAR;48.1054604488;-1.67682850262;4;5;135;0;0
STAR008;Jacques Cartier;STAR;48.0975427301;-1.67545156364;5;4;135;0;0
STAR009;Clemenceau;STAR;48.0934796865;-1.67441842137;6;0;135;0;0
STAR010;Henri Fréville;STAR;48.0876790715;-1.67481606101;7;5;135;0;0
STAR011;Italie;STAR;48.0865643803;-1.6679000186;0;6;135;0;0
STAR012;Triangle;STAR;48.0864371869;-1.66035956927;1;4;135;0;0
STAR013;Le Blosne;STAR;48.0877318777;-1.65427829649;2;3;135;0;0
STAR014;La Poterie;STAR;48.0874903545;-1.64457297309;3;5;135;0;0
BIBUS001;Porte de Plouzané;BIBUS;48.376202;-4.553661;5;6;135;0;0
BIBUS002;Fort Montbarey;BIBUS;48.378617;-4.544116;6;4;135;0;0
BIBUS003;Keranroux;BIBUS;48.382278;-4.539525;7;0;135;0;0
BIBUS004;Coat Tan;BIBUS;48.386002;-4.533627;0;3;135;0;0
BIBUS005;Vali Hir;BIBUS;48.386954;-4.526850;1;4;135;0;0
BIBUS006;Polygone;BIBUS;48.387163;-4.518843;2;5;135;0;0
BIBUS007;Dupuy de Lôme;BIBUS;48.390596;-4.510141;3;0;135;0;0
BIBUS008;Les Capucins;BIBUS;48.390627;-4.504715;4;0;135;0;0
BIBUS009;Saint-Exupéry;BIBUS;48.387366;-4.504362;5;2;135;0;0
BIBUS010;Mac Orlan;BIBUS;48.384776;-4.503893;6;7;135;0;0
BIBUS011;Recouvrance;BIBUS;48.384192;-4.499441;7;2;135;0;0
BIBUS012;Château;BIBUS;48.385369;-4.492558;0;7;135;0;0
BIBUS013;Siam;BIBUS;48.388188;-4.488962;1;5;135;0;0
BIBUS014;Liberté;BIBUS;48.390262;-4.485220;2;1;135;0;0
BIBUS015;Jean Jaurès;BIBUS;48.392310;-4.482801;3;6;135;0;0
BIBUS016;Saint Martin;BIBUS;48.394104;-4.480075;4;0;135;0;0
BIBUS017;Octroi;BIBUS;48.396509;-4.476361;5;3;135;0;0
BIBUS018;Pilier Rouge;BIBUS;48.398800;-4.472876;6;2;135;0;0
BIBUS019;Place de Strasbourg;BIBUS;48.402006;-4.468077;7;2;135;0;0
BIBUS020;Menez Paul;BIBUS;48.406749;-4.467796;0;2;135;0;0
BIBUS021;Europe;BIBUS;48.411221;-4.471099;1;7;135;0;0
BIBUS022;Pontanézen;BIBUS;48.415031;-4.471695;2;4;135;0;0
BIBUS023;Mesmerrien;BIBUS;48.419646;-4.467651;3;5;135;0;0
BIBUS024;Kergaradec;BIBUS;48.424427;-4.466900;4;6;135;0;0
BIBUS025;Porte de Gouesnou;BIBUS;48.430805;-4.468065;5;6;135;0;0
BIBUS026;Eau Blanche;BIBUS;48.416929;-4.459655;6;1;135;0;0
BIBUS027;Kerlaurent;BIBUS;48.418727;-4.453177;7;1;135;0;0
BIBUS028;Porte de Guipavas;BIBUS;48.419157;-4.444185;0;1;135;0;0
BIBUS029;Ateliers;BIBUS;48.388313;-4.497362;1;4;135;0;0
BIBUS030;Jean Moulin;BIBUS;48.385597;-4.493808;2;5;135;0;0
